
  [
  {
    "id": "user1",
    "name": "Amit Sharma",
    "lat": 28.6139,
    "lng": 77.2090,
    "location": "Connaught Place"
  },
  {
    "id": "user2",
    "name": "Priya Singh",
    "lat": 28.5245,
    "lng": 77.1855,
    "location": "Hauz Khas"
  },
  {
    "id": "user3",
    "name": "Rahul Verma",
    "lat": 28.6562,
    "lng": 77.2410,
    "location": "Chandni Chowk"
  },
  {
    "id": "user4",
    "name": "Sneha Gupta",
    "lat": 28.5450,
    "lng": 77.1926,
    "location": "South Extension"
  },
  {
    "id": "user5",
    "name": "Vikram Mehra",
    "lat": 28.6846,
    "lng": 77.2203,
    "location": "Kashmere Gate"
  },
  {
    "id": "user6",
    "name": "Ritu Jain",
    "lat": 28.5672,
    "lng": 77.2100,
    "location": "Lajpat Nagar"
  },
  {
    "id": "user7",
    "name": "Manish Kumar",
    "lat": 28.6270,
    "lng": 77.2188,
    "location": "Karol Bagh"
  },
  {
    "id": "user8",
    "name": "Neha Kapoor",
    "lat": 28.6096,
    "lng": 77.0416,
    "location": "Dwarka"
  },
  {
    "id": "user9",
    "name": "Suresh Yadav",
    "lat": 28.6926,
    "lng": 77.2876,
    "location": "Yamuna Vihar"
  },
  {
    "id": "user10",
    "name": "Anjali Mishra",
    "lat": 28.6353,
    "lng": 77.2250,
    "location": "Rajiv Chowk"
  },
  {
    "id": "user11",
    "name": "Deepak Agarwal",
    "lat": 28.5355,
    "lng": 77.3910,
    "location": "Noida Sector 62"
  },
  {
    "id": "user12",
    "name": "Kavya Reddy",
    "lat": 28.4595,
    "lng": 77.0266,
    "location": "Gurgaon"
  },
  {
    "id": "user13",
    "name": "Arjun Malhotra",
    "lat": 28.5494,
    "lng": 77.2500,
    "location": "Defence Colony"
  },
  {
    "id": "user14",
    "name": "Sania Patel",
    "lat": 28.6508,
    "lng": 77.1710,
    "location": "Rohini"
  },
  {
    "id": "user15",
    "name": "Rohit Bhatia",
    "lat": 28.5403,
    "lng": 77.1662,
    "location": "Vasant Kunj"
  },
  {
    "id": "user16",
    "name": "Pooja Chandra",
    "lat": 28.6692,
    "lng": 77.4538,
    "location": "Ghaziabad"
  },
  {
    "id": "user17",
    "name": "Karan Singh",
    "lat": 28.5706,
    "lng": 77.3272,
    "location": "Mayur Vihar"
  },
  {
    "id": "user18",
    "name": "Divya Nair",
    "lat": 28.6127,
    "lng": 77.2773,
    "location": "IP Extension"
  },
  {
    "id": "user19",
    "name": "Aditya Saxena",
    "lat": 28.7041,
    "lng": 77.1025,
    "location": "Pitampura"
  },
  {
    "id": "user20",
    "name": "Megha Joshi",
    "lat": 28.5384,
    "lng": 77.2509,
    "location": "Greater Kailash"
  },
  {
    "id": "user21",
    "name": "Rajesh Khanna",
    "lat": 28.6419,
    "lng": 77.0757,
    "location": "Janakpuri"
  },
  {
    "id": "user22",
    "name": "Shreya Bansal",
    "lat": 28.4089,
    "lng": 77.3178,
    "location": "Faridabad"
  },
  {
    "id": "user23",
    "name": "Nikhil Agarwal",
    "lat": 28.6100,
    "lng": 77.2300,
    "location": "India Gate"
  },
  {
    "id": "user24",
    "name": "Isha Sharma",
    "lat": 28.6667,
    "lng": 77.2167,
    "location": "Civil Lines"
  },
  {
    "id": "user25",
    "name": "Varun Gupta",
    "lat": 28.5733,
    "lng": 77.2100,
    "location": "Khan Market"
  },
  {
    "id": "user26",
    "name": "Tanya Malhotra",
    "lat": 28.5245,
    "lng": 77.2066,
    "location": "Green Park"
  },
  {
    "id": "user27",
    "name": "Saurabh Kumar",
    "lat": 28.6931,
    "lng": 77.1700,
    "location": "Shalimar Bagh"
  },
  {
    "id": "user28",
    "name": "Ritika Singh",
    "lat": 28.5274,
    "lng": 77.2065,
    "location": "AIIMS"
  },
  {
    "id": "user29",
    "name": "Akash Verma",
    "lat": 28.6304,
    "lng": 77.2177,
    "location": "Paharganj"
  },
  {
    "id": "user30",
    "name": "Priyanka Das",
    "lat": 28.5562,
    "lng": 77.1000,
    "location": "Vasant Vihar"
  },
  {
    "id": "user31",
    "name": "Gaurav Jain",
    "lat": 28.5355,
    "lng": 77.3910,
    "location": "Noida City Centre"
  },
  {
    "id": "user32",
    "name": "Ananya Bhatt",
    "lat": 28.4700,
    "lng": 77.0300,
    "location": "Cyber City"
  },
  {
    "id": "user33",
    "name": "Harsh Agarwal",
    "lat": 28.5245,
    "lng": 77.1855,
    "location": "Hauz Khas Village"
  },
  {
    "id": "user34",
    "name": "Nidhi Kapoor",
    "lat": 28.6304,
    "lng": 77.0663,
    "location": "Rajouri Garden"
  },
  {
    "id": "user35",
    "name": "Vishal Sharma",
    "lat": 28.7196,
    "lng": 77.0718,
    "location": "Rohini Sector 3"
  },
  {
    "id": "user36",
    "name": "Swati Mishra",
    "lat": 28.5403,
    "lng": 77.1662,
    "location": "Vasant Kunj Metro"
  },
  {
    "id": "user37",
    "name": "Abhishek Rai",
    "lat": 28.6517,
    "lng": 77.2219,
    "location": "Shakti Nagar"
  },
  {
    "id": "user38",
    "name": "Riya Choudhary",
    "lat": 28.5706,
    "lng": 77.3272,
    "location": "Mayur Vihar Phase 2"
  },
  {
    "id": "user39",
    "name": "Shivam Singh",
    "lat": 28.6353,
    "lng": 77.2250,
    "location": "Barakhamba Road"
  },
  {
    "id": "user40",
    "name": "Kritika Jain",
    "lat": 28.5384,
    "lng": 77.2509,
    "location": "GK Part 1"
  },
  {
    "id": "user41",
    "name": "Ankur Goyal",
    "lat": 28.6562,
    "lng": 77.2410,
    "location": "Red Fort"
  },
  {
    "id": "user42",
    "name": "Pallavi Sharma",
    "lat": 28.6419,
    "lng": 77.0757,
    "location": "Janakpuri West"
  },
  {
    "id": "user43",
    "name": "Rohit Singh",
    "lat": 28.4595,
    "lng": 77.0266,
    "location": "MG Road Gurgaon"
  },
  {
    "id": "user44",
    "name": "Shipra Gupta",
    "lat": 28.5355,
    "lng": 77.3910,
    "location": "Noida Sector 15"
  },
  {
    "id": "user45",
    "name": "Tushar Khanna",
    "lat": 28.6096,
    "lng": 77.0416,
    "location": "Dwarka Mor"
  },
  {
    "id": "user46",
    "name": "Sonali Verma",
    "lat": 28.6692,
    "lng": 77.4538,
    "location": "Raj Nagar"
  },
  {
    "id": "user47",
    "name": "Mayank Agarwal",
    "lat": 28.5450,
    "lng": 77.1926,
    "location": "South Ex Part 2"
  },
  {
    "id": "user48",
    "name": "Tanvi Patel",
    "lat": 28.7041,
    "lng": 77.1025,
    "location": "Kohat Enclave"
  },
  {
    "id": "user49",
    "name": "Deepak Yadav",
    "lat": 28.6926,
    "lng": 77.2876,
    "location": "Shahdara"
  },
  {
    "id": "user50",
    "name": "Natasha Singh",
    "lat": 28.5672,
    "lng": 77.2100,
    "location": "Lajpat Nagar Central Market"
  },
  {
    "id": "user51",
    "name": "Sidharth Kumar",
    "lat": 28.6270,
    "lng": 77.2188,
    "location": "Karol Bagh Metro"
  },
  {
    "id": "user52",
    "name": "Aditi Bansal",
    "lat": 28.4089,
    "lng": 77.3178,
    "location": "NIT Faridabad"
  },
  {
    "id": "user53",
    "name": "Ravi Malhotra",
    "lat": 28.6100,
    "lng": 77.2300,
    "location": "Rajpath"
  },
  {
    "id": "user54",
    "name": "Meera Joshi",
    "lat": 28.6667,
    "lng": 77.2167,
    "location": "University of Delhi"
  },
  {
    "id": "user55",
    "name": "Ankit Sharma",
    "lat": 28.5733,
    "lng": 77.2100,
    "location": "Lodhi Road"
  },
  {
    "id": "user56",
    "name": "Shreya Singh",
    "lat": 28.5245,
    "lng": 77.2066,
    "location": "AIIMS Metro"
  },
  {
    "id": "user57",
    "name": "Aryan Gupta",
    "lat": 28.6931,
    "lng": 77.1700,
    "location": "Azadpur"
  },
  {
    "id": "user58",
    "name": "Sakshi Agarwal",
    "lat": 28.5274,
    "lng": 77.2065,
    "location": "IIT Delhi"
  },
  {
    "id": "user59",
    "name": "Nitin Verma",
    "lat": 28.6304,
    "lng": 77.2177,
    "location": "New Delhi Railway Station"
  },
  {
    "id": "user60",
    "name": "Kavita Das",
    "lat": 28.5562,
    "lng": 77.1000,
    "location": "Chanakyapuri"
  },
  {
    "id": "user61",
    "name": "Dhruv Khanna",
    "lat": 28.5355,
    "lng": 77.3910,
    "location": "Noida Electronic City"
  },
  {
    "id": "user62",
    "name": "Ruchi Bhatt",
    "lat": 28.4700,
    "lng": 77.0300,
    "location": "DLF Phase 1"
  },
  {
    "id": "user63",
    "name": "Yash Singh",
    "lat": 28.5245,
    "lng": 77.1855,
    "location": "Deer Park"
  },
  {
    "id": "user64",
    "name": "Preeti Kapoor",
    "lat": 28.6304,
    "lng": 77.0663,
    "location": "Tagore Garden"
  },
  {
    "id": "user65",
    "name": "Mohit Sharma",
    "lat": 28.7196,
    "lng": 77.0718,
    "location": "Rohini East"
  },
  {
    "id": "user66",
    "name": "Nikita Mishra",
    "lat": 28.5403,
    "lng": 77.1662,
    "location": "Munirka"
  },
  {
    "id": "user67",
    "name": "Kartik Rai",
    "lat": 28.6517,
    "lng": 77.2219,
    "location": "Timarpur"
  },
  {
    "id": "user68",
    "name": "Anjali Choudhary",
    "lat": 28.5706,
    "lng": 77.3272,
    "location": "Patparganj"
  },
  {
    "id": "user69",
    "name": "Kunal Singh",
    "lat": 28.6353,
    "lng": 77.2250,
    "location": "Mandi House"
  },
  {
    "id": "user70",
    "name": "Simran Jain",
    "lat": 28.5384,
    "lng": 77.2509,
    "location": "Nehru Place"
  },
  {
    "id": "user71",
    "name": "Vaibhav Goyal",
    "lat": 28.6562,
    "lng": 77.2410,
    "location": "Jama Masjid"
  },
  {
    "id": "user72",
    "name": "Khushi Sharma",
    "lat": 28.6419,
    "lng": 77.0757,
    "location": "Subhash Nagar"
  },
  {
    "id": "user73",
    "name": "Abhay Singh",
    "lat": 28.4595,
    "lng": 77.0266,
    "location": "IFFCO Chowk"
  },
  {
    "id": "user74",
    "name": "Ridhima Gupta",
    "lat": 28.5355,
    "lng": 77.3910,
    "location": "Noida Sector 18"
  },
  {
    "id": "user75",
    "name": "Himanshu Khanna",
    "lat": 28.6096,
    "lng": 77.0416,
    "location": "Dwarka Sector 21"
  },
  {
    "id": "user76",
    "name": "Payal Verma",
    "lat": 28.6692,
    "lng": 77.4538,
    "location": "Indirapuram"
  },
  {
    "id": "user77",
    "name": "Aman Agarwal",
    "lat": 28.5450,
    "lng": 77.1926,
    "location": "Ring Road"
  },
  {
    "id": "user78",
    "name": "Zara Patel",
    "lat": 28.7041,
    "lng": 77.1025,
    "location": "Netaji Subhash Place"
  },
  {
    "id": "user79",
    "name": "Pankaj Yadav",
    "lat": 28.6926,
    "lng": 77.2876,
    "location": "Dilshad Garden"
  },
  {
    "id": "user80",
    "name": "Ishita Singh",
    "lat": 28.5672,
    "lng": 77.2100,
    "location": "Moolchand"
  },
  {
    "id": "user81",
    "name": "Raghav Kumar",
    "lat": 28.6270,
    "lng": 77.2188,
    "location": "Jhandewalan"
  },
  {
    "id": "user82",
    "name": "Naina Bansal",
    "lat": 28.4089,
    "lng": 77.3178,
    "location": "Old Faridabad"
  },
  {
    "id": "user83",
    "name": "Shrey Malhotra",
    "lat": 28.6100,
    "lng": 77.2300,
    "location": "Khan Market"
  },
  {
    "id": "user84",
    "name": "Aisha Joshi",
    "lat": 28.6667,
    "lng": 77.2167,
    "location": "Kamla Nagar"
  },
  {
    "id": "user85",
    "name": "Rohan Sharma",
    "lat": 28.5733,
    "lng": 77.2100,
    "location": "Safdarjung"
  },
  {
    "id": "user86",
    "name": "Diya Singh",
    "lat": 28.5245,
    "lng": 77.2066,
    "location": "Kalu Sarai"
  },
  {
    "id": "user87",
    "name": "Sahil Gupta",
    "lat": 28.6931,
    "lng": 77.1700,
    "location": "Model Town"
  },
  {
    "id": "user88",
    "name": "Ayushi Agarwal",
    "lat": 28.5274,
    "lng": 77.2065,
    "location": "Hauz Rani"
  },
  {
    "id": "user89",
    "name": "Lakshay Verma",
    "lat": 28.6304,
    "lng": 77.2177,
    "location": "Ajmeri Gate"
  },
  {
    "id": "user90",
    "name": "Tara Das",
    "lat": 28.5562,
    "lng": 77.1000,
    "location": "RK Puram"
  },
  {
    "id": "user91",
    "name": "Pranav Khanna",
    "lat": 28.5355,
    "lng": 77.3910,
    "location": "Noida Sector 16"
  },
  {
    "id": "user92",
    "name": "Shruti Bhatt",
    "lat": 28.4700,
    "lng": 77.0300,
    "location": "DLF Phase 2"
  },
  {
    "id": "user93",
    "name": "Devang Singh",
    "lat": 28.5245,
    "lng": 77.1855,
    "location": "SDA"
  },
  {
    "id": "user94",
    "name": "Nisha Kapoor",
    "lat": 28.6304,
    "lng": 77.0663,
    "location": "Kirti Nagar"
  },
  {
    "id": "user95",
    "name": "Arpit Sharma",
    "lat": 28.7196,
    "lng": 77.0718,
    "location": "Rohini Sector 9"
  },
  {
    "id": "user96",
    "name": "Pooja Mishra",
    "lat": 28.5403,
    "lng": 77.1662,
    "location": "JNU"
  },
  {
    "id": "user97",
    "name": "Rajat Rai",
    "lat": 28.6517,
    "lng": 77.2219,
    "location": "Burari"
  },
  {
    "id": "user98",
    "name": "Nikita Choudhary",
    "lat": 28.5706,
    "lng": 77.3272,
    "location": "Laxmi Nagar"
  },
  {
    "id": "user99",
    "name": "Sahil Singh",
    "lat": 28.6353,
    "lng": 77.2250,
    "location": "Pragati Maidan"
  },
  {
    "id": "user100",
    "name": "Prachi Jain",
    "lat": 28.5384,
    "lng": 77.2509,
    "location": "Kalkaji"
  },
  {
    "id": "user101",
    "name": "Vikas Goyal",
    "lat": 28.6562,
    "lng": 77.2410,
    "location": "Kashmiri Gate"
  },
  {
    "id": "user102",
    "name": "Mansi Sharma",
    "lat": 28.6419,
    "lng": 77.0757,
    "location": "Uttam Nagar"
  },
  {
    "id": "user103",
    "name": "Karthik Singh",
    "lat": 28.4595,
    "lng": 77.0266,
    "location": "Huda City Centre"
  },
  {
    "id": "user104",
    "name": "Aditi Gupta",
    "lat": 28.5355,
    "lng": 77.3910,
    "location": "Noida Golf Course"
  },
  {
    "id": "user105",
    "name": "Harsh Khanna",
    "lat": 28.6096,
    "lng": 77.0416,
    "location": "Dwarka Sector 8"
  },
  {
    "id": "user106",
    "name": "Riya Verma",
    "lat": 28.6692,
    "lng": 77.4538,
    "location": "Vaishali"
  },
  {
    "id": "user107",
    "name": "Mukesh Agarwal",
    "lat": 28.5450,
    "lng": 77.1926,
    "location": "AIIMS Flyover"
  },
  {
    "id": "user108",
    "name": "Kaveri Patel",
    "lat": 28.7041,
    "lng": 77.1025,
    "location": "Wazirpur"
  },
  {
    "id": "user109",
    "name": "Sunil Yadav",
    "lat": 28.6926,
    "lng": 77.2876,
    "location": "Jhilmil"
  },
  {
    "id": "user110",
    "name": "Neetika Singh",
    "lat": 28.5672,
    "lng": 77.2100,
    "location": "Amar Colony"
  },
  {
    "id": "user111",
    "name": "Aniket Kumar",
    "lat": 28.6270,
    "lng": 77.2188,
    "location": "Rajendra Place"
  },
  {
    "id": "user112",
    "name": "Sejal Bansal",
    "lat": 28.4089,
    "lng": 77.3178,
    "location": "Ballabhgarh"
  },
  {
    "id": "user113",
    "name": "Arnav Malhotra",
    "lat": 28.6100,
    "lng": 77.2300,
    "location": "Rajiv Gandhi Bhawan"
  },
  {
    "id": "user114",
    "name": "Ria Joshi",
    "lat": 28.6667,
    "lng": 77.2167,
    "location": "Vishwavidyalaya"
  },
  {
    "id": "user115",
    "name": "Utkarsh Sharma",
    "lat": 28.5733,
    "lng": 77.2100,
    "location": "Jor Bagh"
  },
  {
    "id": "user116",
    "name": "Radhika Singh",
    "lat": 28.5245,
    "lng": 77.2066,
    "location": "Malviya Nagar"
  },
  {
    "id": "user117",
    "name": "Siddharth Gupta",
    "lat": 28.6931,
    "lng": 77.1700,
    "location": "Adarsh Nagar"
  },
  {
    "id": "user118",
    "name": "Akshita Agarwal",
    "lat": 28.5274,
    "lng": 77.2065,
    "location": "Khanpur"
  },
  {
    "id": "user119",
    "name": "Yuvraj Verma",
    "lat": 28.6304,
    "lng": 77.2177,
    "location": "Chawri Bazar"
  },
  {
    "id": "user120",
    "name": "Khyati Das",
    "lat": 28.5562,
    "lng": 77.1000,
    "location": "Diplomatic Enclave"
  },
  {
    "id": "user121",
    "name": "Akshat Khanna",
    "lat": 28.5355,
    "lng": 77.3910,
    "location": "Noida Stadium"
  },
  {
    "id": "user122",
    "name": "Aanchal Bhatt",
    "lat": 28.4700,
    "lng": 77.0300,
    "location": "DLF Phase 3"
  },
  {
    "id": "user123",
    "name": "Ishan Singh",
    "lat": 28.5245,
    "lng": 77.1855,
    "location": "Aurobindo Marg"
  },
  {
    "id": "user124",
    "name": "Paridhi Kapoor",
    "lat": 28.6304,
    "lng": 77.0663,
    "location": "Ramesh Nagar"
  },
  {
    "id": "user125",
    "name": "Rohak Sharma",
    "lat": 28.7196,
    "lng": 77.0718,
    "location": "Rohini Sector 14"
  },
  {
    "id": "user126",
    "name": "Garima Mishra",
    "lat": 28.5403,
    "lng": 77.1662,
    "location": "Arjun Nagar"
  },
  {
    "id": "user127",
    "name": "Vansh Rai",
    "lat": 28.6517,
    "lng": 77.2219,
    "location": "Gulabi Bagh"
  },
  {
    "id": "user128",
    "name": "Prisha Choudhary",
    "lat": 28.5706,
    "lng": 77.3272,
    "location": "Preet Vihar"
  },
  {
    "id": "user129",
    "name": "Devansh Singh",
    "lat": 28.6353,
    "lng": 77.2250,
    "location": "ITO"
  }
]
